{
  "type": "FeatureCollection",
  "name": "India Major Rail Stations",
  "features": [
    { "type": "Feature", "properties": { "code": "NDLS", "name": "New Delhi", "platforms": 16 }, "geometry": { "type": "Point", "coordinates": [77.2090, 28.6139] } },
    { "type": "Feature", "properties": { "code": "NZM", "name": "Hazrat Nizamuddin", "platforms": 9 }, "geometry": { "type": "Point", "coordinates": [77.2532, 28.5887] } },
    { "type": "Feature", "properties": { "code": "AGC", "name": "Agra Cantt", "platforms": 6 }, "geometry": { "type": "Point", "coordinates": [77.9968, 27.1566] } },
    { "type": "Feature", "properties": { "code": "MTJ", "name": "Mathura Jn", "platforms": 10 }, "geometry": { "type": "Point", "coordinates": [77.6721, 27.4958] } },
    { "type": "Feature", "properties": { "code": "CNB", "name": "Kanpur Central", "platforms": 15 }, "geometry": { "type": "Point", "coordinates": [80.3463, 26.4499] } },
    { "type": "Feature", "properties": { "code": "LKO", "name": "Lucknow NR", "platforms": 12 }, "geometry": { "type": "Point", "coordinates": [80.9462, 26.8467] } },
    { "type": "Feature", "properties": { "code": "ALD", "name": "Prayagraj Jn", "platforms": 10 }, "geometry": { "type": "Point", "coordinates": [81.8294, 25.4358] } },
    { "type": "Feature", "properties": { "code": "BSB", "name": "Varanasi Jn", "platforms": 11 }, "geometry": { "type": "Point", "coordinates": [83.0076, 25.3176] } },
    { "type": "Feature", "properties": { "code": "DDU", "name": "Pt DD Upadhyaya Jn", "platforms": 8 }, "geometry": { "type": "Point", "coordinates": [83.1180, 25.2804] } },
    { "type": "Feature", "properties": { "code": "PNBE", "name": "Patna Jn", "platforms": 10 }, "geometry": { "type": "Point", "coordinates": [85.1376, 25.5941] } },
    { "type": "Feature", "properties": { "code": "ASN", "name": "Asansol Jn", "platforms": 7 }, "geometry": { "type": "Point", "coordinates": [86.9929, 23.6739] } },
    { "type": "Feature", "properties": { "code": "HWH", "name": "Howrah Jn", "platforms": 23 }, "geometry": { "type": "Point", "coordinates": [88.3429, 22.5958] } },
    { "type": "Feature", "properties": { "code": "KGP", "name": "Kharagpur Jn", "platforms": 12 }, "geometry": { "type": "Point", "coordinates": [87.2314, 22.3460] } },
    { "type": "Feature", "properties": { "code": "BBS", "name": "Bhubaneswar", "platforms": 6 }, "geometry": { "type": "Point", "coordinates": [85.8410, 20.2720] } },
    { "type": "Feature", "properties": { "code": "VSKP", "name": "Visakhapatnam", "platforms": 8 }, "geometry": { "type": "Point", "coordinates": [83.3013, 17.6868] } },
    { "type": "Feature", "properties": { "code": "BZA", "name": "Vijayawada Jn", "platforms": 10 }, "geometry": { "type": "Point", "coordinates": [80.6177, 16.5062] } },
    { "type": "Feature", "properties": { "code": "MAS", "name": "Chennai Central", "platforms": 17 }, "geometry": { "type": "Point", "coordinates": [80.2707, 13.0827] } },
    { "type": "Feature", "properties": { "code": "RU", "name": "Renigunta Jn", "platforms": 5 }, "geometry": { "type": "Point", "coordinates": [79.1276, 13.6366] } },
    { "type": "Feature", "properties": { "code": "GTL", "name": "Guntakal Jn", "platforms": 6 }, "geometry": { "type": "Point", "coordinates": [77.3762, 15.1711] } },
    { "type": "Feature", "properties": { "code": "WADI", "name": "Wadi", "platforms": 4 }, "geometry": { "type": "Point", "coordinates": [76.9945, 17.0552] } },
    { "type": "Feature", "properties": { "code": "SUR", "name": "Solapur Jn", "platforms": 5 }, "geometry": { "type": "Point", "coordinates": [75.9060, 17.6599] } },
    { "type": "Feature", "properties": { "code": "PUNE", "name": "Pune Jn", "platforms": 6 }, "geometry": { "type": "Point", "coordinates": [73.8567, 18.5204] } },
    { "type": "Feature", "properties": { "code": "DR", "name": "Dadar", "platforms": 8 }, "geometry": { "type": "Point", "coordinates": [72.8434, 19.0186] } },
    { "type": "Feature", "properties": { "code": "CSMT", "name": "Mumbai CSMT", "platforms": 18 }, "geometry": { "type": "Point", "coordinates": [72.8355, 18.9398] } },
    { "type": "Feature", "properties": { "code": "BSL", "name": "Bhusaval Jn", "platforms": 8 }, "geometry": { "type": "Point", "coordinates": [75.7810, 21.0455] } },
    { "type": "Feature", "properties": { "code": "NGP", "name": "Nagpur Jn", "platforms": 8 }, "geometry": { "type": "Point", "coordinates": [79.0891, 21.1458] } },
    { "type": "Feature", "properties": { "code": "BPL", "name": "Bhopal Jn", "platforms": 6 }, "geometry": { "type": "Point", "coordinates": [77.4126, 23.2599] } },
    { "type": "Feature", "properties": { "code": "ET", "name": "Itarsi Jn", "platforms": 6 }, "geometry": { "type": "Point", "coordinates": [77.7363, 22.6134] } },
    { "type": "Feature", "properties": { "code": "BPQ", "name": "Balharshah", "platforms": 5 }, "geometry": { "type": "Point", "coordinates": [79.5545, 19.3480] } },
    { "type": "Feature", "properties": { "code": "KOTA", "name": "Kota Jn", "platforms": 8 }, "geometry": { "type": "Point", "coordinates": [75.8648, 25.2138] } },
    { "type": "Feature", "properties": { "code": "RTM", "name": "Ratlam Jn", "platforms": 6 }, "geometry": { "type": "Point", "coordinates": [75.0679, 23.3313] } },
    { "type": "Feature", "properties": { "code": "BRC", "name": "Vadodara Jn", "platforms": 7 }, "geometry": { "type": "Point", "coordinates": [73.1812, 22.3072] } },
    { "type": "Feature", "properties": { "code": "ST", "name": "Surat", "platforms": 5 }, "geometry": { "type": "Point", "coordinates": [72.8311, 21.1702] } },
    { "type": "Feature", "properties": { "code": "BSR", "name": "Vasai Road", "platforms": 8 }, "geometry": { "type": "Point", "coordinates": [72.8320, 19.3800] } },
    { "type": "Feature", "properties": { "code": "R", "name": "Raipur Jn", "platforms": 6 }, "geometry": { "type": "Point", "coordinates": [81.6337, 21.2514] } },
    { "type": "Feature", "properties": { "code": "BSP", "name": "Bilaspur Jn", "platforms": 8 }, "geometry": { "type": "Point", "coordinates": [82.1409, 22.0783] } },
    { "type": "Feature", "properties": { "code": "TATA", "name": "Tatanagar Jn", "platforms": 6 }, "geometry": { "type": "Point", "coordinates": [86.2016, 22.7689] } },
    { "type": "Feature", "properties": { "code": "HYB", "name": "Hyderabad Deccan", "platforms": 6 }, "geometry": { "type": "Point", "coordinates": [78.4867, 17.3850] } },
    { "type": "Feature", "properties": { "code": "SC", "name": "Secunderabad Jn", "platforms": 10 }, "geometry": { "type": "Point", "coordinates": [78.4983, 17.4399] } },
    { "type": "Feature", "properties": { "code": "SBC", "name": "Bengaluru City", "platforms": 10 }, "geometry": { "type": "Point", "coordinates": [77.5705, 12.9719] } },
    { "type": "Feature", "properties": { "code": "JTJ", "name": "Jolarpettai", "platforms": 5 }, "geometry": { "type": "Point", "coordinates": [78.5731, 12.5560] } },
    { "type": "Feature", "properties": { "code": "SA", "name": "Salem Jn", "platforms": 6 }, "geometry": { "type": "Point", "coordinates": [78.1460, 11.6643] } },
    { "type": "Feature", "properties": { "code": "CBE", "name": "Coimbatore Jn", "platforms": 5 }, "geometry": { "type": "Point", "coordinates": [76.9558, 11.0168] } },
    { "type": "Feature", "properties": { "code": "ERS", "name": "Ernakulam Jn", "platforms": 6 }, "geometry": { "type": "Point", "coordinates": [76.2673, 9.9816] } },
    { "type": "Feature", "properties": { "code": "TVC", "name": "Thiruvananthapuram", "platforms": 5 }, "geometry": { "type": "Point", "coordinates": [76.9366, 8.5241] } },
    { "type": "Feature", "properties": { "code": "NJP", "name": "New Jalpaiguri", "platforms": 8 }, "geometry": { "type": "Point", "coordinates": [88.4454, 26.6814] } },
    { "type": "Feature", "properties": { "code": "GHY", "name": "Guwahati", "platforms": 8 }, "geometry": { "type": "Point", "coordinates": [91.7362, 26.1445] } }
  ]
}
